[{"geo_point": {"lon": 2.289126, "lat": 48.830231}, "nom": "Arena Paris Sud 4 (Porte de Versailles)", "sites_olympiques_paralympiques": ["Site olympique", "Site paralympique"], "sports": ["Tennis de table", "Para tennis de table"]},{"geo_point": {"lon": 2.351415, "lat": 48.856858}, "nom": "H\u00f4tel de ville de Paris", "sites_olympiques_paralympiques": ["Site olympique"], "sports": ["Athl\u00e9tisme"]},{"geo_point": {"lon": 2.296084, "lat": 48.857232}, "nom": "Stade Tour Eiffel", "sites_olympiques_paralympiques": ["Site olympique", "Site paralympique"], "sports": ["Volleyball de plage", "C\u00e9cifoot"]},{"geo_point": {"lon": 2.034736, "lat": 48.787261}, "nom": "Stade BMX de Saint-Quentin-en-Yvelines", "sites_olympiques_paralympiques": ["Site olympique"], "sports": ["BMX race"]},{"geo_point": {"lon": 2.361803, "lat": 48.899483}, "nom": "Arena La Chapelle", "sites_olympiques_paralympiques": ["Site olympique", "Site paralympique"], "sports": ["Badminton", "Para Badminton", "Gymnastique rythmique", "Para powerlifting"]},{"geo_point": {"lon": 2.257363, "lat": 48.835157}, "nom": "Stade Pierre de Coubertin", "sites_olympiques_paralympiques": ["Site paralympique"], "sports": ["Goalball"]},{"geo_point": {"lon": 2.355527, "lat": 48.923457}, "nom": "Centre aquatique", "sites_olympiques_paralympiques": ["Site olympique"], "sports": ["Natation artistique", "Plongeon", "Water-polo"]},{"geo_point": {"lon": 2.253076, "lat": 48.841319}, "nom": "Parc des Princes", "sites_olympiques_paralympiques": ["Site olympique"], "sports": ["Football"]},{"geo_point": {"lon": 2.359871, "lat": 48.924388}, "nom": "Stade de France", "sites_olympiques_paralympiques": ["Site olympique", "Site paralympique"], "sports": ["Athl\u00e9tisme", "Para athl\u00e9tisme", "Rugby"]},{"geo_point": {"lon": 2.284126, "lat": 48.832068}, "nom": "Arena Paris Sud 1 (Porte de Versailles)", "sites_olympiques_paralympiques": ["Site olympique", "Site paralympique"], "sports": ["Volleyball", "Boccia"]},{"geo_point": {"lon": 1.967776, "lat": 48.788162}, "nom": "Colline d'Elancourt", "sites_olympiques_paralympiques": ["Site olympique"], "sports": ["VTT"]},{"geo_point": {"lon": 2.312406, "lat": 48.866041}, "nom": "Grand Palais", "sites_olympiques_paralympiques": ["Site olympique", "Site paralympique"], "sports": ["Escrime", "Escrime fauteuil", "Taekwondo", "Para taekwondo"]},{"geo_point": {"lon": 2.313222, "lat": 48.862286}, "nom": "Invalides", "sites_olympiques_paralympiques": ["Site olympique", "Site paralympique"], "sports": ["Tir \u00e0 l'arc", "Para tir \u00e0 l'arc", "Athl\u00e9tisme", "Cyclisme sur route"]},{"geo_point": {"lon": 2.420467, "lat": 48.937188}, "nom": "Site d'escalade du Bourget", "sites_olympiques_paralympiques": ["Site olympique"], "sports": ["Escalade sportive"]},{"geo_point": {"lon": 2.332428, "lat": 48.92467}, "nom": "Village olympique", "sites_olympiques_paralympiques": null, "sports": null},{"geo_point": {"lon": 2.08208, "lat": 48.815115}, "nom": "Ch\u00e2teau de Versailles", "sites_olympiques_paralympiques": ["Site olympique", "Site paralympique"], "sports": ["Sports \u00e9questres", "Para \u00e9quitation", "Pentathlon moderne"]},{"geo_point": {"lon": 2.424716, "lat": 48.944207}, "nom": "Village des m\u00e9dias", "sites_olympiques_paralympiques": null, "sports": null},{"geo_point": {"lon": 2.408258, "lat": 48.944643}, "nom": "Terrain des Essences - La Courneuve", "sites_olympiques_paralympiques": ["Site paralympique"], "sports": ["Para athl\u00e9tisme"]},{"geo_point": {"lon": 2.0759, "lat": 48.751095}, "nom": "Golf national", "sites_olympiques_paralympiques": ["Site olympique"], "sports": ["Golf"]},{"geo_point": {"lon": 2.034987, "lat": 48.788046}, "nom": "V\u00e9lodrome National de Saint-Quentin-en-Yvelines", "sites_olympiques_paralympiques": ["Site olympique", "Site paralympique"], "sports": ["Cyclisme sur piste", "Para cyclisme sur piste"]},{"geo_point": {"lon": 2.245501, "lat": 48.84732}, "nom": "Stade Roland Garros", "sites_olympiques_paralympiques": ["Site olympique", "Site paralympique"], "sports": ["Tennis", "Tennis fauteuil", "Boxe"]},{"geo_point": {"lon": 2.546395, "lat": 48.911184}, "nom": "Clichy-sous-Bois", "sites_olympiques_paralympiques": ["Site paralympique"], "sports": ["Para cyclisme sur route"]},{"geo_point": {"lon": 2.2914, "lat": 48.856262}, "nom": "Pont d'I\u00e9na", "sites_olympiques_paralympiques": ["Site olympique"], "sports": ["Cyclisme sur route", "Athl\u00e9tisme"]},{"geo_point": {"lon": 2.378496, "lat": 48.838649}, "nom": "Arena Bercy", "sites_olympiques_paralympiques": ["Site olympique", "Site paralympique"], "sports": ["Basketball", "Basket fauteuil", "Gymnastique artistique", "trampoline"]},{"geo_point": {"lon": 2.519183, "lat": 48.971314}, "nom": "Arena Paris nord", "sites_olympiques_paralympiques": ["Site olympique", "Site paralympique"], "sports": ["Boxe", "Escrime", "Pentathlon moderne", "Volley-ball assis"]},{"geo_point": {"lon": 2.290777, "lat": 48.829624}, "nom": "Arena Paris Sud 6 (Porte de Versailles)", "sites_olympiques_paralympiques": ["Site olympique", "Site paralympique"], "sports": ["Halt\u00e9rophilie", "Handball", "Goalball"]},{"geo_point": {"lon": 2.321205, "lat": 48.865589}, "nom": "Stade de la Concorde", "sites_olympiques_paralympiques": ["Site olympique"], "sports": ["Basketball 3x3", "BMX freestyle", "Breaking", "Skateboard"]},{"geo_point": {"lon": 2.249836, "lat": 48.930873}, "nom": "Stade Yves du Manoir", "sites_olympiques_paralympiques": ["Site olympique"], "sports": ["Hockey"]},{"geo_point": {"lon": 2.300413, "lat": 48.854536}, "nom": "Arena Champs de Mars", "sites_olympiques_paralympiques": ["Site olympique", "Site paralympique"], "sports": ["Judo", "Para judo", "Lutte", "Rugby fauteuil"]},{"geo_point": {"lon": 2.22971, "lat": 48.89566}, "nom": "La D\u00e9fense Arena", "sites_olympiques_paralympiques": ["Site olympique", "Site paralympique"], "sports": ["Natation", "Para natation", "Water-polo"]},{"geo_point": {"lon": 2.636374, "lat": 48.862229}, "nom": "Stade nautique", "sites_olympiques_paralympiques": ["Site olympique", "Site paralympique"], "sports": ["Cano\u00eb", "Para cano\u00eb", "Aviron", "Para aviron"]}]